{
  // using ISO 3166-1 alpha-3 codes
  "NLD":{"name":"Netherlands", "capital":{"name":"Amsterdam", "latitude":52.38333333, "longitude":4.9}},
  "LUX":{"name":"Luxembourg", "capital":{"name":"Luxembourg City", "latitude":49.61, "longitude":6.13333333}},
  "ITA":{"name":"Italy", "capital":{"name":"Rome", "latitude":41.88861111, "longitude":12.48666667}},
  "DEU":{"name":"Germany", "capital":{"name":"Berlin", "latitude":52.51666667, "longitude":13.38333333}},
  "BEL":{"name":"Belgium", "capital":{"name":"Brussels", "latitude":50.83333333, "longitude":4.35}},
  "FRA":{"name":"France", "capital":{"name":"Paris", "latitude":48.85666667, "longitude":2.35194444}},
  "DNK":{"name":"Denmark", "capital":{"name":"Copenhagen", "latitude":55.69, "longitude":12.58611111}},
  "IRL":{"name":"Ireland", "capital":{"name":"Dublin", "latitude":53.34333333, "longitude":-6.2675}},
  "GBR":{"name":"United Kingdom", "capital":{"name":"London", "latitude":51.50722222, "longitude":-0.1275}},
  "GRC":{"name":"Greece", "capital":{"name":"Athens", "latitude":37.96666667, "longitude":23.71666667}},
  "ESP":{"name":"Spain", "capital":{"name":"Madrid", "latitude":40.43333333, "longitude":-3.68333333}},
  "PRT":{"name":"Portugal", "capital":{"name":"Lisbon", "latitude":38.71666667, "longitude":-9.13333333}},
  "AUT":{"name":"Austria", "capital":{"name":"Vienna", "latitude":48.20833333, "longitude":16.37305556}},
  "FIN":{"name":"Finland", "capital":{"name":"Helsinki", "latitude":60.17333333, "longitude":24.94861111}},
  "SWE":{"name":"Sweden", "capital":{"name":"Stockholm", "latitude":59.32944444, "longitude":18.06861111}},
  "POL":{"name":"Poland", "capital":{"name":"Warsaw", "latitude":52.23222222, "longitude":21.00833333}},
  "MLT":{"name":"Malta", "capital":{"name":"Valletta", "latitude":35.89777778, "longitude":14.5125}},
  "CZE":{"name":"Czech Republic", "capital":{"name":"Prague", "latitude":50.08777778, "longitude":14.42055556}},
  "CYP":{"name":"Cyprus", "capital":{"name":"Nicosia", "latitude":35.16694444, "longitude":33.35}},
  "SVK":{"name":"Slovakia", "capital":{"name":"Bratislava", "latitude":48.14472222, "longitude":17.11277778}},
  "SVN":{"name":"Slovenia", "capital":{"name":"Ljubljana", "latitude":46.05138889, "longitude":14.50583333}},
  "EST":{"name":"Estonia", "capital":{"name":"Tallinn", "latitude":59.43333333, "longitude":24.73055556}},
  "LVA":{"name":"Latvia", "capital":{"name":"Riga", "latitude":56.94888889, "longitude":24.10638889}},
  "LTU":{"name":"Lithuania", "capital":{"name":"Vilnius", "latitude":54.68333333, "longitude":25.26666667}},
  "HUN":{"name":"Hungary", "capital":{"name":"Budapest", "latitude":47.49833333, "longitude":19.04083333}},
  "BGR":{"name":"Bulgaria", "capital":{"name":"Sofia", "latitude":42.69722222, "longitude":23.31666667}},
  "ROU":{"name":"Romania", "capital":{"name":"Bucharest", "latitude":44.41666667, "longitude":26.1}},
  "HRV":{"name":"Croatia", "capital":{"name":"Zagreb", "latitude":45.81305556, "longitude":15.97722222}}
}